[
  {
    "name": "MASP",
    "address": "Av. Paulista, 1578 - Bela Vista",
    "city": "São Paulo",
    "state": "SP",
    "country": "Brazil",
    "lat": -23.5609048,
    "long": -46.6849555
  },
  {
    "name": "Beco do Batman",
    "address": "R. Gonçalo Afonso - Vila Madalena",
    "city": "São Paulo",
    "state": "SP",
    "country": "Brazil",
    "lat": -23.5566759,
    "long": -46.6857404
  },
  {
    "name": "Shopping Plaza Sul",
    "address": "Praça Leonor Kaupa, 100 - Jardim da Saúde",
    "city": "São Paulo",
    "state": "SP",
    "country": "Brazil",
    "lat": -23.619575,
    "long": -46.627023
  },
  {
    "name": "Arena Caixa - Centro de Atletismo Professor Oswaldo Terra",
    "address": "R. Tiradentes, 1845 - Santa Terezinha",
    "city": "São Bernardo do Campo",
    "state": "SP",
    "country": "Brazil",
    "lat": -23.725778,
    "long": -46.532081
  },
  {
    "name": "Jardim Botanico",
    "address": "R. Engo. Ostoja Roguski - Jardim Botânico",
    "city": "Curitiba",
    "state": "PR",
    "country": "Brazil",
    "lat": -25.42778,
    "long": -49.27306
  },
  {
    "name": "Pedra Careca Restaurante",
    "address": "Praia da Joaquina, 2500",
    "city": "Florianópolis ",
    "state": "SC",
    "country": "Brazil",
    "lat": -27.6343625,
    "long": -48.4542951
  },
  {
    "name": "Museu de Armas Major Lara Ribas",
    "address": "Av. Osvaldo Rodrigues Cabral, 525 - Centro",
    "city": "Florianópolis",
    "state": "SC",
    "country": "Brazil",
    "lat": -27.5944704,
    "long": -48.561893
  },
  {
    "name": "Casa de Cultura Mário Quintana",
    "address": "R. dos Andradas, 736 - Centro Histórico",
    "city": "Porto Alegre",
    "state": "RS",
    "country": "Brazil",
    "lat": -30.03306,
    "long": -51.23
  },
  {
    "name": "Centro de Convenções Arquiteto Rubens Gil de Camillo",
    "address": "Av. Waldir dos Santos Pereira, s/n - Parque dos Poderes",
    "city": "Campo Grande",
    "state": "MS",
    "country": "Brazil",
    "lat": -20.4504541,
    "long": -54.557574
  },
  {
    "name": "Teatro Amazonas",
    "address": "Avenida Eduardo Ribeiro, Centro",
    "city": "Manaus",
    "state": "AM",
    "country": "Brazil",
    "lat": -3.10194,
    "long": -60.025
  }
]
